station,member_casual,latitude,longitude,number_of_rides
Streeter Dr & Grand Ave,casual,41.892277654572105,-87.61206966705109,46156
DuSable Lake Shore Dr & Monroe St,casual,41.88098505017817,-87.61676695074928,30309
Michigan Ave & Oak St,casual,41.90096583310227,-87.62376370810604,22519
DuSable Lake Shore Dr & North Blvd,casual,41.911724571052346,-87.62681749807803,20250
Millennium Park,casual,41.88107125714321,-87.62409548210196,20243
Shedd Aquarium,casual,41.867232171100476,-87.61541745355305,17765
Theater on the Lake,casual,41.92623791787845,-87.63088415990748,16323
Dusable Harbor,casual,41.88697103347725,-87.6128249672318,15147
Wells St & Concord Ln,casual,41.9120858054155,-87.63473702493924,12178
Montrose Harbor,casual,41.963961775912374,-87.638199876766,11914
Adler Planetarium,casual,41.8661052473746,-87.60728781733829,11842
Indiana Ave & Roosevelt Rd,casual,41.86791526142343,-87.62304034435093,11655
Clark St & Armitage Ave,casual,41.91829297154982,-87.63631076643206,11040
Michigan Ave & 8th St,casual,41.872706968321644,-87.62399283394353,10838
Clark St & Lincoln Ave,casual,41.915706450250234,-87.63460852240074,10830
Clark St & Elm St,casual,41.902887843574405,-87.63142506824799,10799
Wilton Ave & Belmont Ave,casual,41.94014579242387,-87.65297120269435,10574
Wells St & Elm St,casual,41.90315905149631,-87.63444607355272,9891
Wabash Ave & Grand Ave,casual,41.89144540779151,-87.6267583510629,9794
Clark St & Newport St,casual,41.944523918371644,-87.65471552574903,9746
Broadway & Barry Ave,casual,41.93760927423465,-87.64409862366365,9597
Michigan Ave & Washington St,casual,41.8839704974753,-87.62458039504295,9312
DuSable Lake Shore Dr & Diversey Pkwy,casual,41.93257593979363,-87.63642667373095,9255
New St & Illinois St,casual,41.89080966975599,-87.61854335927451,9180
DuSable Lake Shore Dr & Belmont Ave,casual,41.940761721863545,-87.63918731815411,9058
LaSalle St & Illinois St,casual,41.89078214470238,-87.63169389212038,9055
McClurg Ct & Ohio St,casual,41.892601752000004,-87.61729865133937,8840
Kingsbury St & Kinzie St,casual,41.88918366404328,-87.63849754585938,8733
Clark St & Wrightwood Ave,casual,41.92956037143409,-87.64314069116601,8542
Michigan Ave & Lake St,casual,41.88599784158515,-87.62442901583972,8485
Sheffield Ave & Fullerton Ave,casual,41.925599122229464,-87.65370721692663,8437
Sheffield Ave & Waveland Ave,casual,41.94930307902089,-87.65447940798926,8375
Larrabee St & Webster Ave,casual,41.921802959064074,-87.64409413390328,8334
Lakeview Ave & Fullerton Pkwy,casual,41.92586977574103,-87.63896805304452,8333
Field Museum,casual,41.865322477474436,-87.61793136058236,8311
Halsted St & Roscoe St,casual,41.94367275262576,-87.64893667062601,8051
Wells St & Huron St,casual,41.894740000168454,-87.63439674739081,8014
Wells St & Evergreen Ave,casual,41.906709556738164,-87.63496467451834,7879
DuSable Lake Shore Dr & Wellington Ave,casual,41.93670575837233,-87.63683828114827,7864
Lincoln Ave & Fullerton Ave,casual,41.924169635240894,-87.6463714377559,7825
Broadway & Cornelia Ave,casual,41.94549014243163,-87.64645039277771,7715
Wells St & Hubbard St,casual,41.889954053817476,-87.63429056450293,7484
Dearborn St & Erie St,casual,41.894052817065784,-87.62931664868827,7433
State St & Chicago Ave,casual,41.89663891916394,-87.62862334221222,7332
Ashland Ave & Division St,casual,41.903364233011516,-87.66781508580225,7292
Columbus Dr & Randolph St,casual,41.88464794028273,-87.61953847440434,7286
Southport Ave & Roscoe St,casual,41.94370957811134,-87.6639939208481,7275
Pine Grove Ave & Waveland Ave,casual,41.94939544820753,-87.64645173394062,7141
Clark St & Drummond Pl,casual,41.931249324800284,-87.64429028044319,7085
Ellis Ave & 60th St,casual,41.78510357504265,-87.60108121675718,7034
Halsted St & Wrightwood Ave,casual,41.929117228669526,-87.64910500638258,7005
Lincoln Park Conservatory,casual,41.923980351212336,-87.6358462206183,7003
Damen Ave & Pierce Ave,casual,41.90940429682281,-87.67769196437186,6981
Desplaines St & Kinzie St,casual,41.888656598457125,-87.64442997152997,6974
Broadway & Waveland Ave,casual,41.94905292939902,-87.64862621625645,6972
Wabash Ave & Roosevelt Rd,casual,41.86720135718263,-87.62597097861511,6932
Michigan Ave & Jackson Blvd,casual,41.87809162742803,-87.62411015667946,6773
Southport Ave & Waveland Ave,casual,41.9480940803079,-87.66401118389707,6723
Sheffield Ave & Wrightwood Ave,casual,41.92868893891213,-87.65382962122834,6692
Dearborn Pkwy & Delaware Pl,casual,41.89895487804547,-87.629910089089,6641
Fairbanks Ct & Grand Ave,casual,41.89187662229195,-87.62060799562835,6549
Sheffield Ave & Webster Ave,casual,41.9216307564705,-87.65380393990675,6542
Halsted St & Clybourn Ave,casual,41.90962668565844,-87.64812195454085,6523
University Ave & 57th St,casual,41.79148343801166,-87.5998836942283,6518
State St & Randolph St,casual,41.88461688750236,-87.62789536949576,6366
St. Clair St & Erie St,casual,41.89432965068275,-87.62280022497792,6342
Clinton St & Washington Blvd,casual,41.883381265180155,-87.64125858045038,6328
Wilton Ave & Diversey Pkwy,casual,41.9324256962349,-87.65269890703591,6292
Clinton St & Madison St,casual,41.88257640941376,-87.6411781761749,6209
Stockton Dr & Wrightwood Ave,casual,41.931317086855614,-87.63872923948026,6157
Sheffield Ave & Wellington Ave,casual,41.93627049886586,-87.65265814248205,6128
Clark St & Schiller St,casual,41.9079593996613,-87.6315617869735,5964
Clark St & Wellington Ave,casual,41.93649704972638,-87.64756486919086,5957
Sheridan Rd & Irving Park Rd,casual,41.954225845055284,-87.65442568231842,5879
Clark St & Grace St,casual,41.950827097418255,-87.65918642214407,5872
Wabash Ave & Wacker Pl,casual,41.88686228567397,-87.62607325139754,5846
Broadway & Belmont Ave,casual,41.94009876624308,-87.64547386884163,5784
Orleans St & Merchandise Mart Plaza,casual,41.88809194109763,-87.63667558585573,5767
Halsted St & Dickens Ave,casual,41.919957879128695,-87.64885124011653,5750
Racine Ave & Belmont Ave,casual,41.93969898236737,-87.65887016200035,5749
Daley Center Plaza,casual,41.88415578411048,-87.629589407545,5666
Cityfront Plaza Dr & Pioneer Ct,casual,41.89052524300639,-87.6220726401827,5638
Mies van der Rohe Way & Chestnut St,casual,41.89857188985988,-87.62207006441646,5638
Green St & Madison St,casual,41.881864973686646,-87.649199766573,5623
Canal St & Adams St,casual,41.87932935719758,-87.63996783337431,5613
Milwaukee Ave & Grand Ave,casual,41.89159072454643,-87.64832208599677,5578
Kedzie Ave & Milwaukee Ave,casual,41.9295721375378,-87.70789455379409,5556
Franklin St & Jackson Blvd,casual,41.8777300518616,-87.63527890825915,5549
Lakefront Trail & Bryn Mawr Ave,casual,41.98399634162808,-87.65229866413712,5528
Clinton St & Jackson Blvd,casual,41.87835757050054,-87.64112410364889,5514
Clark St & Winnemac Ave,casual,41.97335583331995,-87.66783959707793,5479
Pine Grove Ave & Irving Park Rd,casual,41.9543876633793,-87.64805690274683,5439
Federal St & Polk St,casual,41.87209157988064,-87.62956634804736,5362
Rush St & Cedar St,casual,41.902341966320314,-87.62774336450757,5351
Sedgwick St & North Ave,casual,41.91136788876049,-87.63867601927917,5244
Broadway & Sheridan Rd,casual,41.95279619495657,-87.65003059201312,5181
Field Blvd & South Water St,casual,41.88628511014862,-87.61749159304189,5181
Clark St & North Ave,casual,41.911965949330884,-87.63197465483078,5171
Ravenswood Ave & Lawrence Ave,casual,41.969004852062014,-87.6742270465872,5160
State St & Kinzie St,casual,41.88914748368431,-87.62719444234051,5157
Ellis Ave & 55th St,casual,41.79429704739992,-87.60144281005635,5146
Dearborn St & Monroe St,casual,41.881079690425786,-87.6296314782832,5120
Canal St & Madison St,casual,41.882282845103695,-87.63977118412207,5063
Wabash Ave & 9th St,casual,41.87074375165016,-87.62573685542986,5048
Clark St & Lake St,casual,41.88599608075532,-87.63094900220831,5031
Sedgwick St & Webster Ave,casual,41.92216289311852,-87.63893520933759,5012
Kimbark Ave & 53rd St,casual,41.79956568797379,-87.59474202684072,4960
California Ave & Milwaukee Ave,casual,41.92267367676363,-87.69713995586453,4916
Halsted St & Fulton St,casual,41.88726271567298,-87.64836142907758,4911
Clinton St & Lake St,casual,41.88556291069696,-87.64186876357935,4864
McCormick Place,casual,41.851409208765176,-87.61884689330314,4859
Kingsbury St & Erie St,casual,41.89384077789419,-87.64174408910046,4858
Southport Ave & Wellington Ave,casual,41.93576909545587,-87.66359660865112,4804
Lincoln Ave & Diversey Pkwy,casual,41.932201899341166,-87.6586734165128,4766
Rush St & Superior St,casual,41.895733622115586,-87.62602494309874,4689
Michigan Ave & Pearson St,casual,41.89753740684604,-87.62352330177663,4683
Larrabee St & Kingsbury St,casual,41.897715005718254,-87.64304981256092,4678
Sheridan Rd & Montrose Ave,casual,41.96160222543909,-87.65463259869566,4646
Shore Dr & 55th St,casual,41.795232222796606,-87.58077537662973,4602
Lakefront Trail & Wilson Ave,casual,41.96581773213939,-87.64540400064843,4534
McClurg Ct & Erie St,casual,41.89450612973742,-87.61799439387907,4532
Franklin St & Illinois St,casual,41.89102257888053,-87.63546359501991,4520
Franklin St & Lake St,casual,41.88582474695179,-87.63547495184181,4501
Wood St & Milwaukee Ave,casual,41.90763096521525,-87.67252233483632,4460
Damen Ave & Cortland St,casual,41.91598084609389,-87.67731584877134,4452
Michigan Ave & Madison St,casual,41.88208153391682,-87.62513832276737,4376
Burling St & Diversey Pkwy,casual,41.93308112459596,-87.64774750007346,4356
Mies van der Rohe Way & Chicago Ave,casual,41.89701622192724,-87.62173605015657,4343
Southport Ave & Wrightwood Ave,casual,41.92878876822495,-87.66389139276325,4321
Clark St & Berwyn Ave,casual,41.97800805795704,-87.6682713247023,4283
Ogden Ave & Chicago Ave,casual,41.89635685038903,-87.65407426369346,4267
Clarendon Ave & Gordon Ter,casual,41.95784008114862,-87.64949339769808,4266
Michigan Ave & Ida B Wells Dr,casual,41.876230884087384,-87.62443634926474,4257
Clark St & Randolph St,casual,41.88459238359596,-87.63179080096896,4252
Honore St & Division St,casual,41.90312279436235,-87.67387744459295,4250
Franklin St & Chicago Ave,casual,41.89677415668877,-87.63570360344623,4222
LaSalle Dr & Huron St,casual,41.894853790600095,-87.63237315651328,4216
Burnham Harbor,casual,41.85744857019724,-87.61381507463166,4208
Greenview Ave & Fullerton Ave,casual,41.925376123840664,-87.6658205530321,4205
Ritchie Ct & Banks St,casual,41.906851650713946,-87.62621417425511,4202
Milwaukee Ave & Wabansia Ave,casual,41.91262556040958,-87.68140768955689,4175
Racine Ave & Fullerton Ave,casual,41.92559657167346,-87.65846778074803,4171
Peoria St & Jackson Blvd,casual,41.87766822632239,-87.64955620896718,4144
Southport Ave & Belmont Ave,casual,41.93943873816908,-87.66377859258213,4140
Sedgwick St & Huron St,casual,41.89464748986627,-87.63839116632987,4038
Dayton St & North Ave,casual,41.910589947554676,-87.64943287424703,4024
Sheffield Ave & Kingsbury St,casual,41.910569652350596,-87.65315610946215,4016
Broadway & Wilson Ave,casual,41.96520137198045,-87.65826932406117,3989
Michigan Ave & 14th St,casual,41.86412486650709,-87.62372005695036,3948
Canal St & Monroe St,casual,41.88169483400925,-87.63949753881008,3891
Canal St & Jackson Blvd,casual,41.87728195255856,-87.63944088052767,3885
Clarendon Ave & Junior Ter,casual,41.9609966355999,-87.64956238898816,3884
Sangamon St & Lake St,casual,41.88583205686525,-87.65105218512487,3844
LaSalle St & Jackson Blvd,casual,41.8781008765757,-87.63184888282603,3811
Clark St & Chicago Ave,casual,41.89670900801004,-87.63086251638478,3784
Stetson Ave & South Water St,casual,41.88673584449325,-87.62226454051601,3779
Wells St & Walton St,casual,41.8999468801356,-87.6344388403297,3761
Western Ave & Winnebago Ave,casual,41.91555301282708,-87.68703659455355,3707
Aberdeen St & Jackson Blvd,casual,41.877745936692016,-87.6547902520994,3682
Cannon Dr & Fullerton Ave,casual,41.92673744971436,-87.63443503705113,3676
Carpenter St & Huron St,casual,41.89455472825721,-87.65345839144858,3569
Larrabee St & Division St,casual,41.903501208108416,-87.64333988923207,3542
Calumet Ave & 18th St,casual,41.85765738147653,-87.61944792099574,3515
Clifton Ave & Armitage Ave,casual,41.918208090757794,-87.65698759790392,3497
Aberdeen St & Randolph St,casual,41.88414511268124,-87.65427752619678,3476
State St & Van Buren St,casual,41.87717965243375,-87.62789359273042,3472
Clark St & Leland Ave,casual,41.967079176035824,-87.66741420138399,3461
Wabash Ave & Adams St,casual,41.87947961993353,-87.62572745421966,3460
Woodlawn Ave & 55th St,casual,41.7952982525976,-87.59648313807455,3407
State St & Harrison St,casual,41.87403319606765,-87.6277089113853,3400
Desplaines St & Randolph St,casual,41.88429423022275,-87.64444870098605,3367
Rush St & Hubbard St,casual,41.89018249417238,-87.62622111653147,3353
Museum of Science and Industry,casual,41.79173645920048,-87.58394839003282,3352
Franklin St & Monroe St,casual,41.88022770855224,-87.6354460696388,3350
Wells St & Polk St,casual,41.872756736230585,-87.63366305639487,3348
Desplaines St & Jackson Blvd,casual,41.87813397891128,-87.64403976914586,3325
Elston Ave & Cortland St,casual,41.916454091172184,-87.66677500014576,3293
900 W Harrison St,casual,41.874761266579355,-87.64981779596918,3245
Sheridan Rd & Buena Ave,casual,41.95844700536623,-87.65503343793917,3222
Halsted St & Willow St,casual,41.913855579114795,-87.64877844774476,3197
Damen Ave & Chicago Ave,casual,41.895673805434576,-87.67712478003766,3187
Buckingham Fountain,casual,41.87569672633051,-87.6207243290575,3183
Bissell St & Armitage Ave*,casual,41.91836296431883,-87.6521723851572,3149
Halsted St & Maxwell St,casual,41.864871637004164,-87.64706810534445,3121
Michigan Ave & 18th St,casual,41.857829540719564,-87.62455217532927,3113
Wabash Ave & 16th St,casual,41.860403516787464,-87.62580462658178,3063
Orleans St & Chestnut St (NEXT Apts),casual,41.89815096802176,-87.63754230296077,3033
Sheffield Ave & Willow St,casual,41.91372185217319,-87.65284884132382,3014
Southport Ave & Clybourn Ave,casual,41.92077037014367,-87.66373355359171,2993
Southport Ave & Irving Park Rd,casual,41.95411947707342,-87.66430293200469,2983
Green St & Washington Blvd,casual,41.883194253387316,-87.64874967232456,2964
Franklin St & Adams St (Temp),casual,41.87927742753485,-87.63551845791228,2941
Clark St & Bryn Mawr Ave,casual,41.98357777477683,-87.66916487499489,2935
Sheridan Rd & Noyes St (NU),casual,42.058236296898436,-87.67745612481936,2934
Ogden Ave & Race Ave,casual,41.89178816017088,-87.6587979743028,2926
Delano Ct & Roosevelt Rd,casual,41.867500266147765,-87.63218880743986,2910
Dearborn St & Adams St,casual,41.879237244897396,-87.62975029245565,2875
State St & Pearson St,casual,41.897437160629806,-87.62876100897131,2858
Sheridan Rd & Argyle St,casual,41.97329683645489,-87.6547166188382,2849
Aberdeen St & Monroe St,casual,41.88045523680844,-87.65555530039367,2845
Halsted St & Polk St,casual,41.871824735921194,-87.64663406114661,2817
Larrabee St & Armitage Ave,casual,41.91808966193675,-87.64375698100923,2814
Loomis St & Lexington St,casual,41.87221938509811,-87.66136446245095,2803
Paulina Ave & North Ave,casual,41.910127670531224,-87.67003843896626,2786
Buckingham Fountain (Temp),casual,41.869457804744606,-87.62359807868346,2780
Eckhart Park,casual,41.8963910606426,-87.66100566600362,2770
Marine Dr & Ainslie St,casual,41.97160227791018,-87.65016074538211,2761
Ashland Ave & Blackhawk St,casual,41.90705887525837,-87.66724090764556,2748
Ashland Ave & Grace St,casual,41.95064981186336,-87.66868085666424,2737
Damen Ave & Thomas St (Augusta Blvd),casual,41.90131746001832,-87.67741118046904,2729
Leavitt St & North Ave,casual,41.91031191678283,-87.68236551217169,2726
Clark St & Montrose Ave,casual,41.961556413659075,-87.66614620335416,2722
Jefferson St & Monroe St,casual,41.88034452373574,-87.64273831691203,2717
Financial Pl & Ida B Wells Dr,casual,41.87501949679823,-87.6330983752158,2711
Morgan St & Polk St,casual,41.871908808960804,-87.6510377337648,2704
Racine Ave & Wrightwood Ave,casual,41.92889734997408,-87.65898195994073,2700
Broadway & Granville Ave,casual,41.994777957134744,-87.66028202978048,2642
Broadway & Argyle St,casual,41.97372317019347,-87.65979081905539,2636
Damen Ave & Division St,casual,41.90322601518589,-87.67843453422,2609
California Ave & Cortez St,casual,41.900362087906444,-87.69673874782592,2608
Morgan St & Lake St*,casual,41.885508384217005,-87.65231201516737,2599
Orleans St & Hubbard St,casual,41.88996450365741,-87.6366412310108,2592
Wentworth Ave & Cermak Rd,casual,41.85309862598294,-87.63189987536255,2579
Sangamon St & Washington Blvd,casual,41.883063530249025,-87.65110636007392,2570
Ashland Ave & Lake St,casual,41.885926441875,-87.66717566145313,2560
Benson Ave & Church St,casual,42.048219697175874,-87.68347609466902,2553
Larrabee St & North Ave,casual,41.91012836174666,-87.64347400904013,2542
Broadway & Thorndale Ave,casual,41.98974576583202,-87.6601360241601,2536
Seeley Ave & Roscoe St,casual,41.94337273395505,-87.67967062070979,2536
Wacker Dr & Washington St,casual,41.88317618923381,-87.63731898380726,2532
Walsh Park,casual,41.91457578272045,-87.66796053116647,2529
Western Ave & Walton St,casual,41.898427522260626,-87.68657782849026,2517
Lake Park Ave & 56th St,casual,41.79326330813917,-87.58780112535189,2515
Greenview Ave & Diversey Pkwy,casual,41.93261979186353,-87.66596377071428,2506
Western Ave & Leland Ave,casual,41.966358389149534,-87.68865702040306,2481
Clark St & Ida B Wells Dr,casual,41.875965396273465,-87.63068083650204,2450
LaSalle St & Washington St,casual,41.88269189664075,-87.63251321455401,2444
N Green St & W Lake St,casual,41.88719560344091,-87.64899403538558,2386
Cornell Ave & Hyde Park Blvd,casual,41.80242819752842,-87.58693034077052,2375
Fort Dearborn Dr & 31st St,casual,41.83854096131845,-87.60825963990311,2374
Lake Park Ave & 53rd St,casual,41.799521733097755,-87.58642749125265,2363
Humboldt Blvd & Armitage Ave,casual,41.917519624860056,-87.70181571325276,2358
Western Ave & Division St,casual,41.90290171228511,-87.68732582740425,2350
Damen Ave & Leland Ave,casual,41.96710163314237,-87.67906258900385,2339
Dearborn St & Van Buren St,casual,41.876259615165026,-87.62921855491642,2333
Clinton St & Roosevelt Rd,casual,41.86713767048151,-87.64107010405417,2326
Damen Ave & Charleston St,casual,41.92006643002175,-87.67791107736842,2299
Winthrop Ave & Lawrence Ave,casual,41.96880070359722,-87.6576336667029,2299
Broadway & Berwyn Ave,casual,41.97835142875109,-87.65976528143231,2290
Wolcott (Ravenswood) Ave & Montrose Ave,casual,41.96143568823144,-87.67622705886026,2290
Elizabeth St & Randolph St,casual,41.88357011255824,-87.65912276388572,2275
Clarendon Ave & Leland Ave,casual,41.96795451537168,-87.65002011877434,2260
Ashland Ave & Wellington Ave,casual,41.936094654326965,-87.66985481328298,2251
Green St & Randolph St*,casual,41.883689360617446,-87.6485395449038,2235
May St & Taylor St,casual,41.86947771776119,-87.65552355892808,2211
Racine Ave & 18th St,casual,41.858194169741964,-87.65647193826166,2209
Fairbanks St & Superior St,casual,41.89576245365332,-87.62014098538671,2198
Calumet Ave & 21st St,casual,41.854157202832425,-87.61915521820127,2196
Clark St & 9th St (AMLI),casual,41.87081312178341,-87.6311954518894,2170
Ashland Ave & Wrightwood Ave,casual,41.9288150367037,-87.66853802577778,2160
Chicago Ave & Sheridan Rd,casual,42.0504861833256,-87.67781718211039,2156
Ellis Ave & 58th St,casual,41.788719712597405,-87.60129413140538,2156
Wells St & Institute Pl,casual,41.89742825570037,-87.63442803289425,2156
Campbell Ave & North Ave,casual,41.91053555519517,-87.689564461408,2152
Broadway & Ridge Ave,casual,41.98404250597196,-87.66030106989253,2140
Lincoln Ave & Sunnyside Ave,casual,41.96297607923588,-87.6848651261177,2107
Damen Ave & Wellington Ave,casual,41.93586541182336,-87.67841118790598,2106
Sheridan Rd & Loyola Ave,casual,42.00108819959924,-87.66123803175573,2096
Canal St & Taylor St,casual,41.87020986984089,-87.63947635862584,2074
Sheridan Rd & Lawrence Ave,casual,41.969490334782826,-87.65470599657881,2049
Wood St & Chicago Ave,casual,41.895620125860376,-87.67210601976402,2034
Ada St & Washington Blvd,casual,41.88283233455853,-87.66120225747024,2016
Spaulding Ave & Armitage Ave,casual,41.91710998271642,-87.71024608836318,2010
Leavitt St & Chicago Ave,casual,41.89547367565088,-87.68196336975062,2005
Leavitt St & Armitage Ave,casual,41.91778405929465,-87.68244481468234,1999
Halsted St & Roosevelt Rd,casual,41.867361736364096,-87.64863571613716,1983
Logan Blvd & Elston Ave,casual,41.92945294378979,-87.6841667768671,1979
Albany Ave & Bloomingdale Ave,casual,41.914008952012225,-87.70513978043302,1963
Morgan St & 18th St,casual,41.85809252890138,-87.65108295332652,1957
Leavitt St & Belmont Ave,casual,41.93933977461381,-87.6832546456931,1955
Sedgwick St & Schiller St,casual,41.907621484683155,-87.63852378931993,1941
Lincoln Ave & Roscoe St*,casual,41.94333676591237,-87.67073795619588,1940
Ashland Ave & Chicago Ave,casual,41.89594420742605,-87.66771453741048,1927
Milwaukee Ave & Rockwell St,casual,41.920206958839145,-87.6926325766788,1921
Wood St & Augusta Blvd,casual,41.899162535742676,-87.67216960610355,1912
Ashland Ave & Augusta Blvd,casual,41.899630194976375,-87.66806145328609,1905
Blue Island Ave & 18th St,casual,41.85749133750396,-87.6615867392665,1895
Damen Ave & Foster Ave,casual,41.97562956145327,-87.67946180072933,1851
Damen Ave & Clybourn Ave,casual,41.93191453731083,-87.67781217011976,1837
Damen Ave & Grand Ave,casual,41.892449485676856,-87.67691868643558,1832
Larrabee St & Oak St,casual,41.900233128775284,-87.64298958295244,1829
Lincoln Ave & Belle Plaine Ave,casual,41.956014381580964,-87.68024475899344,1828
Noble St & Milwaukee Ave,casual,41.900691369480306,-87.66259610174508,1828
Milwaukee Ave & Fullerton Ave,casual,41.923219738876035,-87.70041248152066,1815
Kedzie Ave & Palmer Ct,casual,41.921518471915604,-87.70732306638534,1801
Leavitt St & Division St,casual,41.90300275599664,-87.68378090287794,1786
Orleans St & Elm St,casual,41.90289651401468,-87.63771666569734,1771
LaSalle St & Adams St,casual,41.879398136523236,-87.63195166549627,1743
Ravenswood Ave & Irving Park Rd,casual,41.95462183212297,-87.673938379767975,1724
Ashland Ave & Grand Ave,casual,41.89108001656977,-87.66666267983722,1720
California Ave & Division St,casual,41.90302569172093,-87.69750308260465,1720
Ellis Ave & 53rd St,casual,41.799353311095324,-87.60096985233865,1689
Elizabeth St & Fulton St,casual,41.886702745062465,-87.65961156479477,1681
Stave St & Armitage Ave,casual,41.917730215222086,-87.69143843052821,1666
Clark St & Lunt Ave,casual,42.00897417268765,-87.67417589975787,1652
California Ave & North Ave,casual,41.910437638397084,-87.6973772153977,1647
MLK Jr Dr & 29th St,casual,41.84209177358723,-87.61698661987101,1628
California Ave & Francis Pl,casual,41.91853167596675,-87.69744691426108,1624
Clybourn Ave & Division St,casual,41.904596344928876,-87.64057109926406,1617
Clinton St & Tilden St,casual,41.87587384557549,-87.64075241788366,1616
Racine Ave & Randolph St,casual,41.884078270565915,-87.65688662534204,1608
Southport Ave & Clark St,casual,41.95709333835746,-87.66420076052863,1589
Hampden Ct & Diversey Ave,casual,41.93174511520279,-87.64188418155894,1578
Fort Dearborn Dr & 31st St*,casual,41.83861978242212,-87.60864075384616,1573
Wentworth Ave & Cermak Rd*,casual,41.85319971981541,-87.63185552980268,1571
Wood St & Hubbard St,casual,41.889879153623006,-87.6714989146262,1565
Lincoln Ave & Belmont Ave (Temp),casual,41.93948380568211,-87.67108390366795,1554
Racine Ave & Congress Pkwy,casual,41.874638648886744,-87.65703584223938,1554
Artesian Ave & Hubbard St,casual,41.88958598164516,-87.68818032357419,1550
Racine Ave & Washington Blvd,casual,41.883072059929034,-87.65700364900646,1550
Larrabee St & Menomonee St,casual,41.91469136263261,-87.64333513196463,1527
Blackstone Ave & Hyde Park Blvd,casual,41.802564687880576,-87.59034937433726,1524
Lincoln Ave & Addison St,casual,41.94618490794255,-87.67330547366066,1497
State St & 33rd St,casual,41.834737470086836,-87.62583387379425,1497
Damen Ave & Melrose Ave,casual,41.940541965704696,-87.67855547431543,1490
Paulina St & Montrose Ave,casual,41.96150746911486,-87.67141691994594,1480
Lincoln Ave & Waveland Ave,casual,41.948775579487354,-87.67523710435407,1463
Wabash Ave & Cermak Rd,casual,41.85261681392197,-87.62652556647501,1461
Troy St & North Ave,casual,41.90980110941949,-87.70532265147892,1447
Glenwood Ave & Morse Ave,casual,42.00796388780708,-87.66547172065232,1441
W Oakdale Ave & N Broadway,casual,41.93688425859145,-87.64286507528381,1427
Throop St & Taylor St,casual,41.868888905007026,-87.65913103417135,1424
Halsted St & 18th St,casual,41.85760036360818,-87.64602755066244,1419
Campbell Ave & Fullerton Ave,casual,41.92411664170213,-87.68836469859575,1410
California Ave & Altgeld St,casual,41.9266746868117,-87.69770946432952,1402
Paulina St & 18th St,casual,41.857894636276214,-87.66871398030369,1383
Damen Ave & Sunnyside Ave,casual,41.96325551482182,-87.67927454639273,1375
Loomis St & Jackson Blvd,casual,41.87793918743272,-87.66200990739637,1375
Greenview Ave & Jarvis Ave,casual,42.0159717704519,-87.66859861049562,1372
Wolcott Ave & Polk St,casual,41.87128776710219,-87.67369522837227,1370
Richmond St & Diversey Ave,casual,41.931918427582175,-87.701234481271,1369
Ashland Ave & Belle Plaine Ave,casual,41.95608000902934,-87.66886123093303,1329
Wood St & Webster Ave,casual,41.921043190805115,-87.67280712355154,1329
St. Louis Ave & Fullerton Ave,casual,41.92483402467424,-87.71450099936364,1320
Talman Ave & Addison St,casual,41.94664482848784,-87.6946293262158,1316
Paulina St & Flournoy St,casual,41.87304457873668,-87.66908344455099,1314
Clark St & Elmdale Ave,casual,41.99085380341203,-87.66969305658034,1313
Chicago Ave & Washington St,casual,42.03256473823981,-87.67916012931592,1301
Kimball Ave & Belmont Ave,casual,41.93940356090769,-87.71208656744615,1300
Damen Ave & Madison St,casual,41.88139601859044,-87.67492157882538,1277
Leavitt St & Addison St,casual,41.946626742039214,-87.68337110538039,1275
Lake Park Ave & 35th St,casual,41.83126917437301,-87.60879971246825,1260
California Ave & Fletcher St,casual,41.938436964160005,-87.698015338072,1250
California Ave & Montrose Ave,casual,41.961087674201615,-87.69544048749194,1240
Clark St & Schreiber Ave,casual,41.999532829014655,-87.67078130703584,1228
Central Park Ave & Elbridge Ave,casual,41.93534770414876,-87.71686052149586,1210
State St & 19th St,casual,41.85657978210614,-87.62754707319237,1206
Lincoln Ave & Melrose St,casual,41.940549743945184,-87.66947640597176,1204
Wells St & 19th St,casual,41.85679765432247,-87.63386712925386,1166
W Armitage Ave & N Sheffield Ave,casual,41.9185615965236,-87.65229567472961,1165
Central Park Ave & Bloomingdale Ave,casual,41.91416244922338,-87.71676257687609,1146
University Library (NU),casual,42.052936428026314,-87.67338011342983,1140
Harper Ave & 59th St,casual,41.78794444160667,-87.58830663640035,1139
Kosciuszko Park,casual,41.93055614078553,-87.723813161279793,1133
Morgan St & 31st St,casual,41.83778681431616,-87.65115409564831,1126
Leavitt St & Lawrence Ave,casual,41.9689012970625,-87.68404240091964,1120
Winchester Ave & Elston Ave,casual,41.92407566349149,-87.67644625293644,1117
Sheridan Rd & Columbia Ave,casual,42.00457161926829,-87.66144469155375,1107
Elston Ave & Wabansia Ave,casual,41.91292410277577,-87.6641701761935,1106
Clinton St & 18th St,casual,41.85792228456522,-87.64083806550725,1104
Avondale Ave & Irving Park Rd,casual,41.95340322493648,-87.73198128424683,1102
Halsted St & Archer Ave,casual,41.8471927911549,-87.6468107168011,1091
Morgan Ave & 14th Pl,casual,41.86239915038781,-87.65110593065559,1083
Damen Ave & Wabansia Ave,casual,41.91201055232558,-87.67765004730232,1075
Emerald Ave & 31st St,casual,41.838208604644194,-87.64512849735955,1068
Claremont Ave & Hirsch St,casual,41.907767329605264,-87.68587698790414,1064
Rockwell St & Eastwood Ave,casual,41.9658479039603,-87.69369513836484,1058
Lincoln Ave & Byron St,casual,41.95209698378558,-87.67758632692599,1054
Laflin St & Cullerton St,casual,41.85487000244379,-87.66363830196481,1023
Ravenswood Ave & Berteau Ave,casual,41.95791389251222,-87.67357777552297,1023
Western Ave & Roscoe St,casual,41.943048759804114,-87.68729614007836,1021
Hermitage Ave & Polk St,casual,41.87151647653041,-87.66990088885345,1003
Damen Ave & Walnut (Lake) St,casual,41.88594478463074,-87.67702191316367,1002
State St & 35th St,casual,41.831056008401596,-87.62685576842158,1001
Western Ave & Fillmore St,casual,41.86862164824065,-87.68618572012133,989
Avers Ave & Belmont Ave,casual,41.939407674231944,-87.72356754910479,983
Paulina St & Howard St,casual,42.019150886551024,-87.67356213694899,980
Canal St & Harrison St,casual,41.87426848137113,-87.63954292730928,970
Rockwell St & Fletcher St,casual,41.939129286858034,-87.69217574755741,958
Wentworth Ave & 35th St,casual,41.83078487355415,-87.63250353434279,951
California Ave & Byron St,casual,41.952162087216934,-87.6980623069418,945
Cherry Ave & Blackhawk St,casual,41.90722813129374,-87.65565261478261,943
Spaulding Ave & Division St,casual,41.90267342708379,-87.70909800284005,919
Calumet Ave & 33rd St,casual,41.834859849422656,-87.61791223262527,918
Ogden Ave & Congress Pkwy,casual,41.87500634660851,-87.67324043770992,917
Lake Park Ave & 47th St,casual,41.80943473197354,-87.59187888887541,907
Troy St & Elston Ave,casual,41.945230263726366,-87.70664659892103,899
Racine Ave & 15th St,casual,41.86125302315145,-87.65654944399778,898
Campbell Ave & Montrose Ave,casual,41.96155200675585,-87.6912205213378,897
Damen Ave & Cullerton St,casual,41.854971980941706,-87.67565137061659,892
Western Ave & Congress Pkwy,casual,41.874698879739526,-87.68640011074746,883
Halsted St & North Branch St,casual,41.89937630043084,-87.64851970798186,882
Wood St & Taylor St (Temp),casual,41.86930049885189,-87.67370817067739,871
Wilton Ave & Diversey Pkwy*,casual,41.932412193944636,-87.65272098361015,867
May St & Cullerton St,casual,41.85522737167054,-87.65412291018562,862
Halsted St & 21st St,casual,41.853793272715464,-87.64658226877214,847
Washtenaw Ave & Lawrence Ave,casual,41.96889272572609,-87.69615024422669,847
Hoyne Ave & Balmoral Ave,casual,41.979881597322276,-87.68194904290284,844
Wentworth Ave & 33rd St,casual,41.83454426549881,-87.63181486497625,842
Oakley Ave & Irving Park Rd,casual,41.95431147735399,-87.68608063481526,839
N Sheffield Ave & W Wellington Ave,casual,41.93727829905797,-87.6527315706884,828
Christiana Ave & Lawrence Ave,casual,41.968209785875914,-87.71179306115572,822
Clark St & Columbia Ave,casual,42.004454955361076,-87.67239969858016,817
Glenwood Ave & Touhy Ave,casual,42.01275463112607,-87.66603908858018,817
Shields Ave & 31st St,casual,41.83844812365644,-87.6353903198405,815
Lincoln Ave & Winona St,casual,41.97487285459627,-87.69264138654658,805
Campbell Ave & Augusta Blvd,casual,41.89952554150873,-87.68947287280548,802
Rhodes Ave & 32nd St,casual,41.83643189055555,-87.6134804935606,792
Halsted St & 35th St,casual,41.830668681449275,-87.64714696591568,759
Drake Ave & Addison St,casual,41.9473755208839,-87.71759926825857,758
Sheridan Rd & Greenleaf Ave,casual,42.01058823542667,-87.66241244636001,750
Ashland Ave & Archer Ave,casual,41.83916663903924,-87.66562143548038,739
Indiana Ave & 26th St,casual,41.845736033883625,-87.62252409546684,739
N Carpenter St & W Lake St,casual,41.887118145414966,-87.6520534087619,735
Blackstone Ave & 59th St,casual,41.78788922800274,-87.59047928608756,731
Malcolm X College,casual,41.87772440668056,-87.673874070069445,720
Smith Park,casual,41.89202638126051,-87.68939518903362,714
Kedzie Ave & Leland Ave,casual,41.96668078343262,-87.70807894014185,705
Albany Ave & Montrose Ave,casual,41.96103323002849,-87.70584167551281,702
Greenwood Ave & 47th St,casual,41.80981528525108,-87.59935123393113,697
Monticello Ave & Irving Park Rd,casual,41.95399194342898,-87.7190767440746,697
Francisco Ave & Foster Ave,casual,41.975652752071944,-87.70142958997123,695
Indiana Ave & 31st St,casual,41.838823477838616,-87.62186046838617,694
Central Park Ave & North Ave,casual,41.90965555152838,-87.716658643508,687
N Southport Ave & W Newport Ave,casual,41.94303923769006,-87.66302242502924,684
Wallace St & 35th St,casual,41.83066813771596,-87.64127900518302,683
Eastlake Ter & Howard St,casual,42.019195192995525,-87.6643198509091,671
Western Ave & Grace St,casual,41.95027034338301,-87.68859601017884,671
Winchester (Ravenswood) Ave & Balmoral Ave,casual,41.97977202452773,-87.67755940518741,667
Sawyer Ave & Irving Park Rd,casual,41.95360955018377,-87.70930261589587,653
Central St Metra,casual,42.063751590860214,-87.69870740757297,651
Elston Ave & George St,casual,41.93268385127692,-87.69056807089231,650
N Paulina St & Lincoln Ave,casual,41.94258833004754,-87.67106543535658,631
California Ave & Lake St,casual,41.88446015601276,-87.69622414167463,627
Kedzie Ave & 48th Pl,casual,41.8024790532258,-87.7021430723871,620
63rd St Beach,casual,41.78092193654665,-87.57631577427169,611
Western Ave & Monroe St,casual,41.87980444500821,-87.68607873995074,609
Western Ave & 21st St,casual,41.85410227688633,-87.68575335678749,607
South Shore Dr & 71st St,casual,41.76641231438944,-87.56570153519802,606
Wentworth Ave & 24th St,casual,41.8500785743771,-87.63214987112794,594
Calumet Ave & 35th St,casual,41.831380159712836,-87.61803843234797,592
Noble St & Milwaukee Ave (Temp),casual,41.899827275591214,-87.66149158815878,592
Knox Ave & Montrose Ave,casual,41.9606580327551,-87.74538510545918,588
Evanston Civic Center,casual,42.05703406784615,-87.68657003282051,585
Prairie Ave & Garfield Blvd,casual,41.794848954030876,-87.61873438629503,583
Francisco Ave & Montrose Ave,casual,41.96059422722892,-87.7005237692599,581
Woodlawn Ave & Lake Park Ave,casual,41.81408944042105,-87.59700885549123,570
Manor Ave & Leland Ave,casual,41.96586573042478,-87.70082981552213,565
Cottage Grove Ave & Oakwood Blvd,casual,41.823089309125,-87.60714521825,560
Leavitt St & Archer Ave,casual,41.82875768533928,-87.68065261321429,560
Western Ave & Lunt Ave,casual,42.008609473625,-87.69045340232142,560
Cottage Grove Ave & 51st St,casual,41.803025131921004,-87.60661283416518,557
Kedzie Ave & Foster Ave,casual,41.975672984723246,-87.70926817293358,542
Emerald Ave & 28th St,casual,41.84357970889094,-87.64540389622921,541
Keystone Ave & Fullerton Ave,casual,41.92457176424581,-87.72787977594041,537
Kedzie Ave & George St,casual,41.932913760167914,-87.70792554145523,536
Elston Ave & Henderson St,casual,41.94095570454887,-87.70053806966166,532
Sacramento Blvd & Addison St,casual,41.94738560147573,-87.70199881862136,515
Drake Ave & Montrose Ave,casual,41.961157206102364,-87.71659944783465,508
Clinton St & Polk St,casual,41.871460856158414,-87.64092224653466,505
Central St & Girard Ave,casual,42.064306351068545,-87.68614497721775,496
Central Park Ave & Ogden Ave,casual,41.854006260122446,-87.71499595846939,490
Dodge Ave & Church St,casual,42.04832327934292,-87.69841697735113,487
Francisco Ave & Bloomingdale Ave,casual,41.91335283641079,-87.69950424856846,482
Troy St & Grace St,casual,41.95017159743215,-87.70736627043841,479
MLK Jr Dr & Pershing Rd,casual,41.82468770549145,-87.61681204980769,468
Woodlawn Ave & 58th St,casual,41.789387587713676,-87.59648408299145,468
Prairie Ave & 43rd St,casual,41.81666605087794,-87.61941333505354,467
Ashland Ave & 13th St,casual,41.86525064450644,-87.66650479534334,466
Long & Irving Park,casual,41.95170548651613,-87.761220226,465
South Shore Dr & 67th St,casual,41.77364459832972,-87.56746410167028,461
Western Ave & Berteau Ave,casual,41.958591779330355,-87.68895958535714,448
Narragansett & Wrightwood,casual,41.92874426759637,-87.7877863429932,441
Ogden Ave & Roosevelt Rd,casual,41.866144643,-87.6846771699091,440
Kedzie Ave & Lake St,casual,41.884735101290325,-87.70633666993088,434
N Shore Channel Trail & Argyle St,casual,41.97160206232558,-87.70204949306977,430
Loomis St & Archer Ave,casual,41.84163769842857,-87.65746058661905,420
Budlong Woods Library,casual,41.98368313959427,-87.69642404350836,419
Racine Ave & 13th St,casual,41.86504500194245,-87.65697534671463,417
St. Louis Ave & Balmoral Ave,casual,41.980040611153846,-87.71587299896635,416
Shields Ave & 28th Pl,casual,41.84278184139759,-87.63549797522892,415
W Washington Blvd & N Peoria St,casual,41.88294565439614,-87.64997892115942,414
Dorchester Ave & 49th St,casual,41.805785690268294,-87.59246406768293,410
University Ave & 59th St,casual,41.78787058026829,-87.59893619378049,410
Western Ave & Granville Ave,casual,41.99416984887805,-87.6894516397561,410
Western Ave & Gunnison St,casual,41.96978771997537,-87.68972783667488,406
Racine Ave & 35th St,casual,41.83066443676692,-87.65618884152882,399
Harlem & Irving Park,casual,41.951791950328285,-87.80842985813132,396
California Ave & Francis Pl (Temp),casual,41.918536633705585,-87.6974519081472,394
State St & 95th St,casual,41.72171396172589,-87.62283372200507,394
Cottage Grove Ave & 63rd St,casual,41.78057136263427,-87.60603395452685,391
Clark St & Jarvis Ave,casual,42.01596442452196,-87.67499970276485,387
Clark St & Touhy Ave,casual,42.012560594791665,-87.67427449140625,384
Pulaski Rd & 51st St,casual,41.800242336093746,-87.72263302815104,384
Bernard St & Elston Ave,casual,41.94993045522193,-87.71396649174935,383
MTV Hubbard St,casual,41.88980764920844,-87.68027101192612,379
N Damen Ave & W Chicago Ave,casual,41.89657389653439,-87.67840967224868,378
Cottage Grove Ave & 47th St,casual,41.80984750039788,-87.60675137989391,377
California Ave & 21st St,casual,41.853794793128344,-87.69578201836899,374
Kildare Ave & Montrose Ave,casual,41.96107498825269,-87.73569310193548,372
Western Ave & Howard St,casual,42.01891426451613,-87.69005323217742,372
Ridge Blvd & Touhy Ave,casual,42.01212877138587,-87.68293107934782,368
Calumet Ave & 51st St,casual,41.802277774833335,-87.61806647227777,360
Warren Park West,casual,42.001789761142064,-87.68882834228413,359
Conservatory Dr & Lake St,casual,41.885500267030814,-87.7168625984874,357
Keystone Ave & Montrose Ave,casual,41.96108208098315,-87.72898305539326,356
Sayre & Diversey,casual,41.93050625238764,-87.80052395191011,356
MLK Jr Dr & 47th St,casual,41.809845543943666,-87.6162914851831,355
Francisco Ave & Chicago Ave,casual,41.895915075480225,-87.69867839584745,354
Elmwood Ave & Austin St,casual,42.02578197883853,-87.68411706603399,353
Oakley Ave & Touhy Ave,casual,42.012335110566575,-87.68825483883853,353
Drexel Ave & 60th St,casual,41.78585018113636,-87.60457657107955,352
Cottage Grove Ave & 43rd St,casual,41.8164909004023,-87.60659564614943,348
Campbell Ave & Irving Park Rd,casual,41.95252370336336,-87.69055819525525,333
Whipple/Irving Park,casual,41.9529848624924,-87.70311032489361,329
Kedzie Ave & Bryn Mawr Ave,casual,41.98224774040625,-87.70889842990626,320
Kedzie Ave & Chicago Ave,casual,41.89547228021875,-87.70613933296875,320
Pulaski Rd & Eddy St,casual,41.946277311174605,-87.73105757257143,315
Dorchester Ave & 63rd St,casual,41.78040960111465,-87.59140303761147,314
State St & 29th St,casual,41.84171066700637,-87.62694316719745,314
Valli Produce - Evanston Plaza,casual,42.03972283630573,-87.69942045828026,314
Warren Park East,casual,42.004558283280254,-87.68064299292993,314
Kilbourn & Roscoe,casual,41.941436746830064,-87.73976329300653,306
California Ave & 23rd Pl,casual,41.849123745803276,-87.69514030409836,305
Princeton Ave & 47th St,casual,41.80932886449664,-87.63346060060402,298
Racine Ave & Fullerton Ave (Temp),casual,41.925193449115646,-87.65738312996598,294
2112 W Peterson Ave,casual,41.991169209795224,-87.68360122460751,293
Milwaukee Ave & Cuyler Ave,casual,41.95446912982699,-87.74959477823529,289
Albany Ave & Belmont Ave,casual,41.93979596552083,-87.70694329871527,288
Normal Ave & Archer Ave,casual,41.84952757407017,-87.640585684,285
Ridge Blvd & Howard St,casual,42.019262984859154,-87.68454429105634,284
Western Ave & 24th St,casual,41.8484675803169,-87.68513601042254,284
Kilbourn Ave & Irving Park Rd,casual,41.95373515558304,-87.74054800632508,283
Public Rack - Kostner Ave & Armitage Ave,casual,41.91860835422939,-87.73815163362006,279
Jeffery Blvd & 67th St,casual,41.77351680678701,-87.57725724938628,277
Ping Tom Park (East),casual,41.85845000077491,-87.63174072114391,271
Dodge Ave & Mulford St,casual,42.02359104575188,-87.69961517063909,266
Lincoln Ave & Balmoral Ave,casual,41.979620269849626,-87.6921717662782,266
DuSable Museum,casual,41.7915550284151,-87.60785592207547,265
Damen Ave & Coulter St,casual,41.8491929340625,-87.67564215328125,256
Lincoln Ave & Peterson Ave,casual,41.990146391102364,-87.7091676077559,254
Central Park Ave & 24th St,casual,41.84809802167347,-87.71509659836735,245
Washtenaw Ave & Ogden Ave,casual,41.86197570946058,-87.69330002024897,241
Lavergne & Fullerton,casual,41.92203700295359,-87.75060440236287,237
Archer (Damen) Ave & 37th St,casual,41.82671315846154,-87.6831511126923,234
Rockwell St & Cermak Rd,casual,41.85089876974249,-87.6903344823176,233
Kilbourn Ave & Milwaukee Ave,casual,41.94706912137931,-87.73998563961207,232
Western Ave & 111th St,casual,41.69121063930736,-87.68129690696969,231
Eberhart Ave & 61st St,casual,41.78409255842795,-87.61449507676856,229
Perry Ave & 69th St,casual,41.769281193201756,-87.62821536495615,228
Burnham Greenway & 112th St,casual,41.69176956681416,-87.53044867057523,226
Washtenaw Ave & Polk St,casual,41.87070683835555,-87.69235784555555,225
Lincolnwood Dr & Central St,casual,42.06480587918919,-87.71531254716217,222
Wood St & 35th St,casual,41.83012158144796,-87.6703253762896,221
Kedzie Ave & 110th St,casual,41.69239537392694,-87.70095836333334,219
Austin Blvd & Lake St,casual,41.887935017706425,-87.7744054121101,218
Halsted St & 37th St,casual,41.82706956908257,-87.64571964454129,218
State St & 79th St,casual,41.75079066466981,-87.6244365734434,212
Kedzie Ave & 21st St,casual,41.85354544971564,-87.70506440962085,211
Bosworth Ave & Howard St,casual,42.0195349692823,-87.66953159334928,209
Wolcott Ave & Fargo Ave,casual,42.01695487849514,-87.67771947606796,206
Big Marsh Park,casual,41.68587972551724,-87.573814831133,203
Chicago State University,casual,41.71896298344828,-87.60833405359605,203
MLK Jr Dr & 56th St,casual,41.7934436479703,-87.61585620163366,202
Fairfield Ave & 44th St,casual,41.81189838328283,-87.69169285257576,198
Kedzie Ave & 57th St,casual,41.7899284410101,-87.70130350979798,198
Dodge Ave & Main St,casual,42.03476242948718,-87.6991517774359,195
Lamon Ave & Belmont Ave,casual,41.93949819625641,-87.74964759333334,195
Hoyne Ave & 47th St,casual,41.80822365618557,-87.67719131015464,194
Stony Island Ave & 67th St,casual,41.7734995096875,-87.58528247583332,192
Walden Pkwy & 100th St,casual,41.7122036996875,-87.66772672135417,192
Kilpatrick Ave & Parker Ave,casual,41.930408134867726,-87.7421810226455,189
Maplewood Ave & Peterson Ave,casual,41.99023574591398,-87.69337063989248,186
Public Rack - Milwaukee Ave & Haussen Ct,casual,41.93843813575269,-87.72114965903226,186
Union Ave & Root St,casual,41.81912525,-87.64328695817204,186
Cottage Grove Ave & 67th St,casual,41.77373029663043,-87.60564222733696,184
South Shore Dr & 74th St,casual,41.76221859364641,-87.55923285718232,181
Western Blvd & 48th Pl,casual,41.80566940394444,-87.68338007738889,180
California Ave & Winona St,casual,41.972825758435754,-87.69869379022346,179
Jeffery Blvd & 71st St,casual,41.76662057162921,-87.57643871904494,178
Damen Ave & Pershing Rd,casual,41.82319259158192,-87.6766100442373,177
Lawndale Ave & 30th St,casual,41.839356011525425,-87.71811771254237,177
Sacramento Blvd & Franklin Blvd,casual,41.8905483484,-87.70264237662857,175
Stony Island Ave & 63rd St,casual,41.78041872697143,-87.58742093594286,175
Wentworth Ave & 63rd St,casual,41.78008304686047,-87.629774119069765,172
Buckingham - Fountain,casual,41.876595706023394,-87.6204503359649,171
Meade Ave & Diversey Ave,casual,41.93049371549708,-87.77912073017544,171
Public Rack - Pulaski Rd & Armitage Ave,casual,41.9183026551462,-87.7282957980117,171
Public Rack - Lowell Ave & Elston Ave,casual,41.96794848629412,-87.73839196723529,170
Public Rack - Washtenaw Ave & Superior St,casual,41.89280602782353,-87.69488116117647,170
Kilbourn & Belden,casual,41.92129993840237,-87.73944253485207,169
Millard Ave & 26th St,casual,41.84454988615384,-87.71598848538461,169
Public Rack - Hamlin Ave & Fullerton Ave,casual,41.92239282490909,-87.7207138669697,165
Central Ave & Parker Ave,casual,41.93005883621118,-87.76857444726708,161
Stony Island Ave & 71st St,casual,41.766493382981366,-87.58646204012423,161
Indiana Ave & 40th St,casual,41.8216760773125,-87.621536772875,160
Lockwood Ave & Wrightwood Ave,casual,41.92898576794872,-87.75924445134616,156
Pulaski Rd & 21st St,casual,41.85240779851613,-87.72316166219355,155
Fullerton & Monitor,casual,41.921289879090914,-87.77076202487012,154
Rockwell St & Archer Ave,casual,41.821681000064935,-87.689839847207793,154
Public Rack - Midway Orange Line,casual,41.78736547803921,-87.73874728542484,153
Public Rack - Woodlawn Ave & 63rd St N,casual,41.780405463398694,-87.59755522797386,153
Kenosha & Wellington,casual,41.93184251289474,-87.73156910789474,152
Yates Blvd & 75th St,casual,41.75874055649007,-87.56642471774835,151
Stony Island Ave & 64th St,casual,41.77888030406667,-87.5866519824,150
Kostner Ave & Wrightwood Ave,casual,41.92901630966216,-87.7380849845946,148
Public Rack - Western Blvd & 49th St,casual,41.80279628608108,-87.68184861695946,148
Commercial Ave & 130th St,casual,41.65913862387755,-87.55076334904761,147
Wentworth Ave & 24th St (Temp),casual,41.850078179520544,-87.63214964938356,146
Damen Ave & 59th St,casual,41.78587696722222,-87.67346809180556,144
Kostner Ave & 63rd St,casual,41.77930819454546,-87.7313794655944,143
Cicero Ave & Lake St,casual,41.886863326549296,-87.74533544704225,142
Halsted St & 63rd St,casual,41.779380193450706,-87.64468791901409,142
Washtenaw Ave & Peterson Ave,casual,41.9903045248227,-87.69876514390072,141
Lawndale Ave & 111th St,casual,41.69131394671429,-87.7128691245,140
MLK Jr Dr & 63rd St,casual,41.78008649942446,-87.61594756935251,139
Public Rack - Hamlin Ave & Montrose Ave,casual,41.96060121710145,-87.72138022753623,138
Pulaski Rd & 60th St,casual,41.78221366311594,-87.72135256905797,138
Austin Blvd & Chicago Ave,casual,41.89486428919708,-87.77462781182481,137
Fairfield Ave & Roosevelt Rd,casual,41.86704821423358,-87.69430891218978,137
Komensky Ave & 31st St,casual,41.837677740145985,-87.72691315167883,137
Public Rack - Harold Washington Park,casual,41.800671395839416,-87.58312903021898,137
Rainbow Beach,casual,41.75787387408759,-87.54937743284671,137
Central Ave & Lake St,casual,41.88766814154412,-87.76546592705883,136
Western Ave & Ardmore Ave,casual,41.98767072558824,-87.68977400029412,136
California & 16th St,casual,41.85935686791045,-87.69601801298508,134
Princeton Ave & Garfield Blvd,casual,41.79497735440298,-87.63312259865671,134
Richmond St & Lincoln Ave,casual,41.98905635253731,-87.70173289716418,134
Long Ave & Belmont Ave,casual,41.93921144022556,-87.76078259533836,133
Western Ave & Lake St,casual,41.88327371323308,-87.68716956090225,133
Calumet Park,casual,41.713710409083966,-87.5308405548855,131
Kedzie Ave & 52nd St,casual,41.799600505461534,-87.70149506907693,130
Long Ave & Belden Ave,casual,41.92158854076923,-87.76055557584615,130
St Louis Ave & 59th St,casual,41.788210757829454,-87.71024324209301,129
Mulligan Ave & Wellington Ave,casual,41.931759185984255,-87.78161646913387,127
Buckingham Fountain (Columbus/Balbo),casual,41.87219358666667,-87.62307076730158,126
Kedzie Ave & Roosevelt Rd,casual,41.86651261587301,-87.70649158134921,126
Oak Park & Wellington,casual,41.931960755238094,-87.79822957111111,126
Albany Ave & 26th St,casual,41.84450355008,-87.70193104048,125
Cicero Ave & Grace St,casual,41.9498148456,-87.74775854096,125
Western Ave & 104th St,casual,41.70459824276423,-87.68116540341462,123
Austin Blvd & Madison St,casual,41.880285957459016,-87.77446299565574,122
Eggleston Ave & 69th St,casual,41.76890142155738,-87.63585066508196,122
Lawler Ave & 50th St,casual,41.80128247926229,-87.74938691508197,122
Marshfield Ave & 44th St,casual,41.81400665254098,-87.66662634213115,122
Halsted St & 47th Pl,casual,41.80814572525,-87.645628043,120
Narragansett & Irving Park,casual,41.95148507308333,-87.78737656975001,120
St Louis Ave & Norman Bobbins Ave,casual,41.79194164208333,-87.71054450999999,120
Greenwood Ave & 97th St,casual,41.7187057670339,-87.59702182516949,118
Ashland Ave & Pershing Rd,casual,41.82345360362069,-87.66558484215517,116
Prospect Sq & 91st St,casual,41.728111304224136,-87.66756684663794,116
Pulaski Rd & Lake St,casual,41.88489047681035,-87.72630713077587,116
Phillips Ave & 79th St,casual,41.751820496754384,-87.56521777508772,114
Public Rack - Monticello Ave & Belmont Ave,casual,41.93952165289473,-87.71895918429824,114
Virginia Ave & Catalpa Ave,casual,41.98092380736842,-87.70459985429825,114
Cottage Grove Ave & 83rd St,casual,41.74344707699115,-87.6048503681416,113
Kildare Ave & 26th St,casual,41.84243747787611,-87.73122408654868,113
Sacramento Blvd & Fulton Ave,casual,41.8878773099115,-87.7010219559292,113
Francisco Ave & Hollywood Ave,casual,41.98269194339286,-87.70095026160715,112
Lamon Ave & Armitage Ave,casual,41.91836411741072,-87.74974118991071,112
Morgan St & Pershing Rd,casual,41.82361964747748,-87.65091139360361,111
N Clark St & W Elm St,casual,41.902214599272725,-87.63124176445454,110
Campbell Ave & 51st St,casual,41.800667491834865,-87.68771300587156,109
Laramie Ave & Madison St,casual,41.88021683084112,-87.7553725940187,107
Mason Ave & Belmont Ave,casual,41.93915455682243,-87.77128717728972,107
Kedzie Ave & 24th St,casual,41.84820201462264,-87.70544036688679,106
Hamlin Ave & Grand Ave,casual,41.90323668057143,-87.72127024380953,105
Stony Island Ave & 75th St,casual,41.75867214085714,-87.5868919152381,105
Central Park & Augusta Blvd,casual,41.89906103875,-87.71706495028846,104
Shabbona Park,casual,41.943238905,-87.79955683490384,104
Public Rack - Spaulding Ave & Evergreen Ave,casual,41.907402420970875,-87.70965436640776,103
Kilpatrick Ave & Grand Ave,casual,41.91145344372549,-87.74193546274509,102
Central Ave & Roscoe St,casual,41.9410058390099,-87.76863821346535,101
Wabash Ave & 87th St,casual,41.73657504465347,-87.62265224485148,101
Avenue O & 134th St,casual,41.6518544666,-87.5400931254,100
Pulaski Rd & Eddy St (Temp),casual,41.9462743133,-87.7310602587,100
Ashland Ave & McDowell Ave,casual,41.808868714646465,-87.66453701060607,99
California Ave & 36th St,casual,41.82887796173469,-87.69285061530613,98
Green St & Madison Ave*,casual,41.88185371625,-87.64884275552083,96
Hale Ave & 107th St,casual,41.69921822270833,-87.66888529885416,96
Komensky Ave & 55th St,casual,41.791948079166666,-87.7224787790625,96
Doty Ave & 111th St,casual,41.69505763284211,-87.598857048,95
Public Rack - Milwaukee Ave & Higgins Ave,casual,41.96864599852631,-87.76124782326316,95
Ashland Ave & Garfield Blvd,casual,41.79287671595745,-87.66443683202128,94
Kenneth Ave & 50th St,casual,41.80150527712766,-87.73284910861702,94
State St & Pershing Rd,casual,41.823019355638294,-87.62657102978723,94
Steelworkers Park,casual,41.73857111645162,-87.53057552526882,93
Francisco Ave & 47th St,casual,41.809191364673914,-87.69825829358696,92
Nordica & Medill,casual,41.92093726434783,-87.80084227108695,92
Sacramento Ave & Pershing Rd,casual,41.821326140108695,-87.69981304369566,92
Hoyne Ave & 34th St,casual,41.83116058879121,-87.67874440593407,91
W 103rd St & S Avers Ave,casual,41.707542537032964,-87.71827917593407,91
Ashland Ave & 50th St,casual,41.80301384088889,-87.66469544677777,90
California Ave & Marquette Rd,casual,41.771044825555556,-87.69219262455556,90
Greenwood Ave & 79th St,casual,41.75130547733333,-87.59693138433333,90
Public Rack - Kenton Ave & Palmer St,casual,41.920387379888886,-87.74106280277778,90
Laramie Ave & Kinzie St,casual,41.887832459213485,-87.7556118211236,89
Public Rack - Christiana Ave & Belmont Ave,casual,41.93957128662921,-87.71106692719101,89
Public Rack - Milwaukee Ave & Diversey Ave,casual,41.93070336078652,-87.71062326617977,89
Roscoe & Harlem,casual,41.94100734483146,-87.80823632707865,89
Major Taylor Trail & 115th St,casual,41.684939109545454,-87.64528740909091,88
State St & 54th St,casual,41.796624351704544,-87.62592148409091,88
Public Rack - Lawndale Ave & Diversey Ave,casual,41.931179097241376,-87.71955325,87
Sacramento Ave & 25th St,casual,41.84747391705882,-87.70011126952942,85
Kedzie Ave & Harrison St,casual,41.873618330119044,-87.70487994035715,84
Public Rack - Washtenaw Ave & Devon Ave,casual,41.998725052261904,-87.69847795261904,84
Springfield Ave & 47th St,casual,41.809012773214285,-87.72063338214285,84
Stewart Ave & 83rd St,casual,41.74372167547619,-87.63408769619048,84
Central Park Ave & Ohio St,casual,41.890970530120484,-87.71815417457832,83
Dauphin Ave & 103rd St,casual,41.70728355301205,-87.60766973313254,83
Public Rack - Rockwell & Division,casual,41.90200069638554,-87.69157504554217,83
Central Ave & Chicago Ave,casual,41.89495859292683,-87.76490544256097,82
Greenwood Ave & 91st St,casual,41.72858356463414,-87.59729776585365,82
Narragansett Ave & School St,casual,41.940093224268296,-87.78746989207318,82
Public Rack - Milwaukee Ave & School St,casual,41.940320200975606,-87.72779347060975,82
Rockwell St & 57th St,casual,41.79024890378049,-87.68938061731707,82
Archer Ave & 43rd St,casual,41.81738224654321,-87.70139129790124,81
Halsted St & 78th St,casual,41.75250462790124,-87.64377995358025,81
Harlem Ave & Grace St,casual,41.94914895691358,-87.8074622737037,81
Homan Ave & 65th St,casual,41.77732476333333,-87.70893946308642,81
Kostner Ave & Lake St,casual,41.885932435061726,-87.7354010954321,81
Martin Luther King Dr & 111th St,casual,41.691501986666665,-87.61207927654321,81
Tripp Ave & 65th St,casual,41.77254971395062,-87.72939511135803,81
Albany Ave & 16th St,casual,41.859445391,-87.70245821675,80
Artesian Ave & 55th St,casual,41.79165287425,-87.688279017375,80
Central Ave & Madison St,casual,41.880124497875,-87.763222677625,80
Michigan Ave & 71st St,casual,41.765297426375,-87.6217451175,80
Central Park Blvd & 5th Ave,casual,41.87567197,-87.71548724088608,79
Cottage Grove Ave & 111th Pl,casual,41.6916844143038,-87.61000470936709,79
Ewing Ave & Burnham Greenway,casual,41.79210813848101,-87.58360893607595,79
Stewart Ave & 63rd St,casual,41.77983781329114,-87.63477524886075,79
Public Rack - Avers Ave & Irving Park Rd,casual,41.95182190038961,-87.72203641961039,77
Public Rack - Spaulding Ave & North Ave,casual,41.910026908961036,-87.70968973571428,77
Woodlawn Ave & 75th St,casual,41.7591695825974,-87.59575474051948,77
Public Rack - Hyde Park Blvd & 55th St,casual,41.79608754381579,-87.58315000776315,76
Meade Ave & Addison St,casual,41.94771902386667,-87.7793937224,75
Troy Ave & 27th St,casual,41.84191469786667,-87.70294770666666,75
Baltimore Ave & 87th St,casual,41.73733918418919,-87.54850057905405,74
Central Ave & Harrison St,casual,41.87300269743243,-87.76450456094595,74
Exchange Ave & 79th St,casual,41.75170980918919,-87.552831725,74
Indiana Ave & 103rd St,casual,41.707106589594595,-87.6185243254054,74
Western Ave & 28th St,casual,41.84152195027027,-87.68514882054055,74
Burnham Greenway & 105th St,casual,41.70460443246575,-87.52831046589041,73
Public Rack - Cumberland & Catherine,casual,41.97754920849315,-87.83697023082192,73
Public Rack - Hyde Park Blvd & 53rd St,casual,41.79961530054794,-87.5840329079452,73
Cottage Grove Ave & 71st St,casual,41.76572892138889,-87.60501195111111,72
Kildare Ave & Chicago Ave,casual,41.89714511208333,-87.73223436819444,72
Orange & Addison,casual,41.94261375125,-87.82227185527778,72
Harding Ave & 26th St,casual,41.841377558428576,-87.720990724,70
Pulaski Rd & Congress Pkwy,casual,41.87441061285714,-87.72610508971428,70
Racine Ave & Garfield Blvd,casual,41.79422804285714,-87.65510507342857,70
Kenton Ave & Madison St,casual,41.88071472753623,-87.74103065173912,69
Loomis Blvd & 84th St,casual,41.74153534782609,-87.65841543304349,69
Torrence Ave & 106th St,casual,41.70284436028985,-87.55983740927536,69
Maplewood Ave & 59th St,casual,41.78776747014706,-87.68846826411765,68
Pulaski & Ann Lurie Pl,casual,41.81811285735294,-87.72255149264706,68
Hamlin Ave & 62nd Pl,casual,41.77995169044776,-87.71908725537314,67
Hegewisch Metra Station,casual,41.648547295522384,-87.54616521567165,67
Constance Ave & 95th St,casual,41.72224980151515,-87.57896764060607,66
Dauphin Ave & 87th St,casual,41.736517073939396,-87.60126435378788,66
Kildare Ave & 47th St,casual,41.80884808757576,-87.73041231212122,66
Kildare Ave & 55th St,casual,41.7911557780303,-87.73020247833334,66
Kildare Ave & Division St,casual,41.90200652415385,-87.73301792923077,65
Leamington Ave & Hirsch St,casual,41.90789092569231,-87.75248733261539,65
Oketo Ave & Addison St,casual,41.94314195276923,-87.81095660784615,65
Public Rack - Walden Pkwy & 103rd St,casual,41.708162802,-87.66955897246154,65
Seeley Ave & Garfield Blvd,casual,41.794111285384616,-87.67548922415385,65
Commercial Ave & 83rd St,casual,41.744617079375004,-87.55120636765625,64
Kedzie Ave & 45th St,casual,41.8105956778125,-87.70169292390625,64
Narragansett & McLean,casual,41.917114399375,-87.78656761421875,64
Public Rack - Austin Ave & Wrightwood Ave,casual,41.9287270428125,-87.777771619375,64
Richmond St & 59th St,casual,41.7875605421875,-87.69806931125,64
Bloomingdale Ave & Harlem Ave,casual,41.91100084761904,-87.80792265777778,63
Damen Ave & 51st St,casual,41.800907889523806,-87.67467107396826,63
Plainfield & Irving Park,casual,41.95125966507937,-87.83202681317461,63
Public Rack - Avers & Lawrence,casual,41.96847352354839,-87.72413800887097,62
Clyde Ave & 87th St,casual,41.73718444065574,-87.57268935360655,61
Elizabeth St & 59th St,casual,41.789793810819674,-87.65469873131148,61
Halsted St & 69th St,casual,41.769054656721316,-87.64460913327869,61
Lamon Ave & Chicago Ave,casual,41.896940544754095,-87.74887437754099,61
Ashland Ave & 63rd St,casual,41.779349994,-87.66487474283333,60
Cicero Ave & Flournoy St,casual,41.872136336833336,-87.74663646483333,60
Public Rack - California Ave & Cortez St,casual,41.90019114933333,-87.69764223133333,60
Public Rack - Menard Ave & Dakin St - midblock,casual,41.9515323555,-87.77162921183333,60
California Ave & 26th St,casual,41.84370701423729,-87.6949353442373,59
Evans Ave & 75th St,casual,41.758495726779664,-87.60641926118645,59
Jeffery Blvd & 76th St,casual,41.757125571694914,-87.57584658355933,59
La Villita Park (Albany/30th),casual,41.839524417118646,-87.70130720525424,59
Loomis St & Lexington St*,casual,41.872175217118645,-87.66152841355932,59
Shields Ave & 43rd St,casual,41.81619537186441,-87.63467636559322,59
Ellis Ave & 83rd St,casual,41.74412502482759,-87.59906159258621,58
Homewood Ave & 115th St,casual,41.684594447413794,-87.67076797672414,58
Kedzie Ave & 104th St,casual,41.70297711724138,-87.70105557655172,58
Kildare & Cermak,casual,41.851087007413796,-87.73160040310344,58
Latrobe Ave & Chicago Ave,casual,41.89473733241379,-87.75688050293104,58
Lawndale Ave & 16th St,casual,41.859427312586206,-87.71845294068966,58
Maryland Ave & 104th St,casual,41.708255062758624,-87.60115956034483,58
North Ave & New England Ave,casual,41.90959741913793,-87.79837764017242,58
Public Rack - Lafayette Ave & 95th St,casual,41.72143695965517,-87.62367621293103,58
Cicero Ave & Quincy St,casual,41.87761389596491,-87.74539525719298,57
Karlov Ave & Madison St,casual,41.88085546736842,-87.72794289473684,57
MLK Jr Dr & 83rd St,casual,41.743107984210525,-87.61480121035088,57
Tripp Ave & 31st St,casual,41.838734753157894,-87.73021311719299,57
Vernon Ave & 107th St,casual,41.70017601035088,-87.6122974608772,57
Altgeld Gardens,casual,41.656855218392856,-87.59881502517857,56
Major Ave & Bloomingdale Ave,casual,41.91189690107143,-87.76896522089285,56
Marshfield Ave & 59th St,casual,41.786814843035714,-87.66621297696429,56
Torrence Ave & 126th Pl,casual,41.66629589660714,-87.55719135482143,56
Vernon Ave & 75th St,casual,41.75837032125,-87.61414410089286,56
Albany Ave & Douglas Blvd,casual,41.86277249290909,-87.70258959454546,55
Avenue O & 118th St,casual,41.681013235636364,-87.53797167381818,55
Halsted St & 96th St,casual,41.71971108072727,-87.64293598218181,55
Public Rack - California Ave & Touhy Ave - NW,casual,42.011159802181815,-87.69996606327273,55
Vernon Ave & 79th St,casual,41.750943346545455,-87.61379057527273,55
Vincennes Ave & 75th St,casual,41.75796650490909,-87.63121131909091,55
Houston Ave & 92nd St,casual,41.728204912037036,-87.54965180222221,54
Public Rack - Lawndale Ave & 23rd St,casual,41.84983036185185,-87.71681781314815,54
Wabash Ave & 83rd St,casual,41.74335814185185,-87.62284151907407,54
Halsted St & 51st St,casual,41.80179774433962,-87.64522799773584,53
Monticello Ave & Chicago Ave,casual,41.89668996037736,-87.71822776075471,53
Stony Island Ave & 82nd St,casual,41.74656329037736,-87.58600090377358,53
Ashland Ave & 78th St,casual,41.752219883653844,-87.66376014846153,52
Campbell Ave & Montrose Ave (Temp),casual,41.9615305534,-87.6928097272,50
Public Rack - Champlain Ave & 65th St,casual,41.7782177346,-87.6097492026,50
Public Rack - Cicero Ave & Wrightwood Ave,casual,41.9288109318,-87.748116671,50
Public Rack - Kedzie Ave & Argyle St,casual,41.9710074388,-87.70938069179999,50
Bennett Ave & 79th St,casual,41.751797018775505,-87.57850047959184,49
Yates Blvd & 93rd St,casual,41.72616554102041,-87.56629594163265,49
Long Ave & North Ave,casual,41.90953714520833,-87.76054060729167,48
Public Rack - 63rd Pl & Narraganssett Ave,casual,41.77680487208333,-87.78195705020833,48
Central Park Ave & Douglas Blvd,casual,41.862006255957446,-87.71648199659575,47
Damen Ave & 74th St,casual,41.75927861255319,-87.67365044085106,47
Eberhart Ave & 91st St,casual,41.72928361680851,-87.61126061170214,47
Monticello Ave & Lawrence Ave,casual,41.96818406255319,-87.71952857659575,47
Public Rack - Fullerton Ave & Narragansett Ave,casual,41.92201979489362,-87.78774543276596,47
Public Rack - Kostner Ave & Diversey Ave,casual,41.931351631063826,-87.7378316806383,47
Menard Ave & North Ave,casual,41.90985632369565,-87.7701051373913,46
Woodlawn & 103rd,casual,41.70738101347826,-87.5940489321739,46
Homan Ave & Fillmore St,casual,41.86881819688889,-87.71050728355556,45
Public Rack - Kedzie Ave & Archer Ave,casual,41.811623304,-87.702612944,45
Public Rack - Nagle Ave & Belmont Ave,casual,41.93891170244444,-87.78835219088889,45
Public Rack - Prairie Ave & Garfield Blvd S,casual,41.79436793377778,-87.618983546,45
Public Rack - Washington Park Ct & 51st St,casual,41.80218282977778,-87.61513406822222,45
Stony Island Ave & South Chicago Ave,casual,41.751173904,-87.58533693066667,45
Woodlawn & 103rd - Olive Harvey Vaccination Site,casual,41.70994173333333,-87.59008927777778,45
Halsted St & 56th St,casual,41.79295511068182,-87.64500368386364,44
Oglesby Ave & 100th St,casual,41.713364546818184,-87.56585600590908,44
Public Rack - Eli Whitney Public School,casual,41.840040256818185,-87.72810633181818,44
Public Rack - Jonathan Y Scammon Public School,casual,41.94093075863636,-87.73138851704546,44
Public Rack - Western Ave & Devon Ave,casual,41.99830685954546,-87.6898385225,44
Cottage Grove Ave & 78th St,casual,41.75318255255814,-87.60501972558139,43
Public Rack - Stewart Ave & 123rd St,casual,41.670318878604654,-87.63198237930233,43
Ashland Ave & 74th St,casual,41.759214365714286,-87.66347945333334,42
Public Rack - S. New England/ W. 65th,casual,41.77363182547619,-87.79324087142857,42
Vincennes Ave & 104th St,casual,41.70493837428572,-87.65696071785715,42
East End Ave & 87th St,casual,41.73680839902439,-87.58280433731707,41
Eberhart Ave & 131st St,casual,41.65828111365854,-87.6107238795122,41
Marquette Ave & 89th St,casual,41.73368771902439,-87.55843395121951,41
Parkside Ave & Armitage Ave,casual,41.91841830097561,-87.76857537658536,41
Public Rack - Lockwood Ave & Diversey Ave,casual,41.93037835317073,-87.75973661658537,41
Public Rack - Melvina Ave & Belmont Ave,casual,41.9392837404878,-87.78058317853659,41
Whipple St & Roosevelt Rd,casual,41.86754922195122,-87.70120150121951,41
Augusta Blvd & Laramie Ave,casual,41.89888303925,-87.756283689,40
Halsted St & 104th St,casual,41.70515436175,-87.64241973425,40
Mayfield & Roosevelt Rd,casual,41.86621735125,-87.77149593175,40
Mozart St & Jackson Blvd,casual,41.878249957,-87.698170106,40
Racine Ave & 61st St,casual,41.783187562,-87.654357109,40
S Wentworth Ave & W 111th St,casual,41.691557194,-87.62893729425,40
Calumet Ave & 71st St,casual,41.76551466820513,-87.61693321205128,39
Public Rack - Columbus & 79th,casual,41.74929827974359,-87.70403444974359,39
Public Rack - Milwaukee Ave & Addison St,casual,41.94792051435898,-87.73755880948718,39
Public Rack - Racine Ave & 109th Pl,casual,41.694233249487176,-87.65239444666666,39
Rockwell St & 63rd St,casual,41.77912486205128,-87.68898211692307,39
Elizabeth St & 47th St,casual,41.80839923947369,-87.65652613842106,38
Elizabeth St & 92nd St,casual,41.72681852473684,-87.65429211973685,38
Laramie Ave & Gladys Ave,casual,41.87581000236842,-87.75531750342105,38
Loomis St & 89th St,casual,41.732414898421055,-87.65807249736842,38
Public Rack - California Ave & Devon Ave - NE,casual,41.998589966842104,-87.69978281868421,38
Troy St & Jackson Blvd,casual,41.878961537368426,-87.70203440473685,38
Kostner Ave & Adams St,casual,41.87791465297297,-87.73594410702702,37
Menard Ave & Division St,casual,41.90176672567568,-87.77038781405405,37
Public Rack - 56th St & Mulligan Ave,casual,41.79036471027027,-87.77996226702703,37
McCormick Blvd & Devon Ave,casual,41.99713131694444,-87.71121403194445,36
Public Rack - Keystone Ave & North Ave,casual,41.90992200666666,-87.72893281527777,36
Spaulding Ave & 16th St,casual,41.859191445,-87.70848116611111,36
Panama Ave & Grace St,casual,41.949329298,-87.82978818228571,35
Public Rack - Neva Ave & Grand Ave,casual,41.922613888571426,-87.80331399371428,35
Public Rack - Prairie Ave & 47th St ,casual,41.80972491457143,-87.61955584457144,35
Public Rack - Pulaski Rd & 44th St,casual,41.81142659542857,-87.72131667485714,35
Public Rack - S Menard & W 63rd,casual,41.777737416571426,-87.76741386971429,35
Public Rack - Sacramento Ave & Devon Ave,casual,41.99823427685714,-87.70324166485715,35
Summit Ave & 86th St,casual,41.73785001885714,-87.64490644857143,35
Major Taylor Trail & 124th St,casual,41.66870385205882,-87.63713197794118,34
May St & 69th St,casual,41.768951019117644,-87.652947775,34
South Chicago Ave & 83rd St,casual,41.74392389529412,-87.57521730588236,34
Stony Island Ave & 90th St,casual,41.73139061852941,-87.5857546667647,34
Tripp Ave & 15th St,casual,41.860358526764706,-87.73067394205883,34
Halsted St & 111th St,casual,41.69227851787879,-87.64268650363637,33
Public Rack - King Dr & 115th St,casual,41.688187916666664,-87.61131558363637,33
Public Rack - Laramine Ave & Winnemac Ave,casual,41.97161370515151,-87.75786287121213,33
Public Rack - Parkside & Archer,casual,41.79633176181818,-87.76294483484848,33
Spaulding Ave & 63rd St,casual,41.77982281727273,-87.70906886030302,33
Public Rack - Hoyne Ave & 110th Pl,casual,41.6912286671875,-87.672237215,32
Public Rack - Lockwood & Archer,casual,41.79678900625,-87.7552933203125,32
Public Rack - Western & 79th,casual,41.7508462328125,-87.6825687390625,32
Public Rack - Wilbur Wright College South,casual,41.958348011875,-87.787451153125,32
Public Rack - 61st St & Melvina Ave,casual,41.78065315548387,-87.77756209419354,31
Sacramento Blvd & Polk St,casual,41.87073758129032,-87.70022482096775,31
California Ave & 29th St,casual,41.84016962766667,-87.692889449,30
Indiana Ave & 133rd St,casual,41.65272028733333,-87.61787902133334,30
Public Rack - Campbell Ave & Pratt Blvd,casual,42.007212386,-87.691455766,30
Public Rack - Lorel Ave & Grand Ave,casual,41.91937080966667,-87.75990839033334,30
Public Rack - N. Oakview and W. Gregory St,casual,41.98012425733334,-87.84363368166667,30
Halsted St & 73rd St,casual,41.76161179034482,-87.64415056965517,29
Michigan Ave & 114th St,casual,41.68702457241379,-87.62110483413794,29
S Michigan Ave & E 118th St,casual,41.67988162517241,-87.62049760379311,29
State St & 76th St,casual,41.75700920862069,-87.62461619137932,29
Keeler Ave & Roosevelt Rd,casual,41.867279745357145,-87.72998494321429,28
Public Rack - Avondale Ave & Addison St,casual,41.948528137857146,-87.71993924607143,28
Public Rack - Elston Ave & Kenneth Ave,casual,41.96770699214286,-87.73956472964285,28
Public Rack - Milwaukee Ave & Kennedy Expy,casual,41.971191468214286,-87.76369497071428,28
Public Rack - Oketo Ave & Belmont Ave,casual,41.9390238425,-87.81096212178572,28
S Aberdeen St & W 106th St,casual,41.70090512142857,-87.64952256357142,28
Public Rack - Central Ave & Pensacola Ave,casual,41.96001312666667,-87.76747922296296,27
Public Rack - Cicero Ave & Roscoe St,casual,41.94195028259259,-87.74777448740741,27
Public Rack - Hamlin Ave & Grand Ave,casual,41.901919219999996,-87.72015276259259,27
Public Rack - Laramie Ave & Belmont Ave,casual,41.93910156407407,-87.75707433407408,27
Public Rack - Milwaukee Ave & Culyer Ave,casual,41.95359336259259,-87.74958714777777,27
Public Rack - Minuteman Park,casual,41.78587107851852,-87.76232890333334,27
Public Rack - Nagel & Higgins,casual,41.97645395851852,-87.78772026148148,27
Public Rack - Nashotah & Northwest Hwy,casual,41.9881307537037,-87.79130019740741,27
Public Rack - Springfield Ave & Lawrence Ave,casual,41.96837634777778,-87.72578623481482,27
Public Rack - St Louis Ave & Berteau Ave,casual,41.95862469185185,-87.71596376296296,27
Public Rack - Tripp Ave & North Ave,casual,41.909931326296295,-87.73173302925926,27
Damen Ave & 33rd St,casual,41.83409995153846,-87.6755894676923,26
Public Rack - Avers Ave & Archer Ave,casual,41.80204164846154,-87.71978412730769,26
Public Rack - Christiana Ave & Archer Ave,casual,41.81054935269231,-87.70931655615384,26
Public Rack - Karlov Ave & Kamerling Ave,casual,41.907961154999995,-87.72944178,26
Public Rack - Lavergne & Lawrence,casual,41.96823239115385,-87.75211790384616,26
Public Rack - Talman Ave & Pershing Rd,casual,41.82149117769231,-87.69037012961539,26
Racine Ave & 65th St,casual,41.77540611538462,-87.65431052269231,26
Public Rack - Christiana & Lincoln,casual,41.9933991628,-87.712607068,25
Public Rack - Keystone Ave & Irving Park Rd,casual,41.9522695196,-87.7299499068,25
Public Rack - Kimball Ave & Lawrence Ave,casual,41.9681344208,-87.7131227572,25
Public Rack - Komensky Ave & 63rd St,casual,41.7790319892,-87.7226534076,25
Public Rack - N Narragansett Ave & Grand Ave,casual,41.9216220268,-87.7839562568,25
Public Rack - Pulaski Rd & Fullerton Ave,casual,41.922562832000004,-87.7286984924,25
Public Rack - Sawyer Ave & Lawrence Ave,casual,41.96868936,-87.709728862,25
Ashland Ave & 66th St,casual,41.77407351916666,-87.66378568375,24
Halsted St & 59th St,casual,41.78756404875,-87.64487810916667,24
Lavergne Ave & 46th St,casual,41.80972812541667,-87.74907801416667,24
Public Rack - Kilbourn Ave & Fullerton Ave,casual,41.920371583333335,-87.73998386083333,24
Public Rack - State ST & 42nd St,casual,41.8195529875,-87.62810394333333,24
State St & 123rd St,casual,41.67066162875,-87.62267525333334,24
Olive Harvey College,casual,41.70955215869565,-87.59023427913043,23
Phillips Ave & 83rd St,casual,41.74453591826087,-87.56507694086956,23
Public Rack - Hiawatha & Mendota,casual,42.00711087,-87.77805518608696,23
Public Rack - Karlov Ave & Milwaukee Ave,casual,41.941470269565215,-87.72987258173913,23
Public Rack - Kimball Ave & Carmen Ave,casual,41.972052697826086,-87.71174884652174,23
Public Rack - Michigan Ave & 96th St,casual,41.71911058043478,-87.62053344652173,23
Ada St & 113th St,casual,41.687565752727274,-87.65540826545454,22
Public Rack - Ford City Mall,casual,41.75754253727273,-87.74122923818182,22
Public Rack - Karlov Ave & Lawrence Ave,casual,41.96843415045455,-87.73003104909091,22
Public Rack - Komensky Ave & 31st St,casual,41.84,-87.73,22
Public Rack - Leamington & Elston,casual,41.97817703545454,-87.75681465045454,22
Public Rack - Martin Luther King Dr & 44th St,casual,41.814238303636365,-87.6164187759091,22
Public Rack - McCormick Blvd & Devon Ave,casual,41.99879708454546,-87.71064748045454,22
Public Rack - Rockwell Ave & Touhy Ave ,casual,42.01092324545454,-87.69808569318182,22
Commercial Ave & 100th St,casual,41.71331617761905,-87.55112022571429,21
Public Rack - Kedzie Ave & 58th St,casual,41.78888370523809,-87.70232812238095,21
Public Rack - Laramie Ave & Fullerton Ave,casual,41.92213674904762,-87.75834153285714,21
Public Rack - Monticello & Lawrence,casual,41.968311645238096,-87.7195295147619,21
Public Rack - Western Ave & 110th St,casual,41.69252466190476,-87.68077177761906,21
Damen Ave/Coulter St,casual,41.849201153,-87.6756433365,20
Lavergne Ave & Division St,casual,41.901416167,-87.750596146,20
Public Rack - Austin Ave & Roscoe St,casual,41.940794980999996,-87.778726700000007,20
Public Rack - Calumet Ave & 51st St,casual,41.8021487965,-87.6182754905,20
Public Rack - Kildare Ave & North Ave,casual,41.9099205935,-87.7325323925,20
Public Rack - Laramie Ave & Warwick Ave,casual,41.9491887,-87.7580443035,20
Public Rack - Mobile Ave & Archer Ave,casual,41.792726341,-87.780202125,20
Public Rack - Nordica & Archer,casual,41.792271855,-87.797709186,20
Public Rack - Normal Ave & 111th St,casual,41.69240143,-87.635543346,20
Throop St & 52nd St,casual,41.799665665,-87.6571930345,20
Public Rack - Abbott Park,casual,41.72135144105263,-87.6221113631579,19
Public Rack - Baltimore Ave & 133rd St,casual,41.65248042789474,-87.54791073052631,19
Public Rack - California Ave & Marquette Rd,casual,41.77,-87.69,19
Public Rack - Hamilton Ave & 95th St,casual,41.72058789052632,-87.67787223842106,19
Public Rack - Kildare Ave & Division St,casual,41.9,-87.73,19
Public Rack - Lotus Ave & Lawrence Ave,casual,41.968151278421054,-87.76285452421052,19
Public Rack - Pulaski & Rosemont,casual,41.99523733421053,-87.72883900052632,19
Rhodes Ave & 71st St,casual,41.76600691631579,-87.61172456842105,19
Public Rack - Central Ave & Lawrence Ave,casual,41.96834291555555,-87.76819766388888,18
Public Rack - Cicero Ave & Cortland St - midblock,casual,41.91806518055556,-87.74819098666667,18
Public Rack - Harper Ave & 63rd St,casual,41.78065850944444,-87.58815843777778,18
Public Rack - Kedzie Ave & 61st Pl E,casual,41.78099538666667,-87.70119978777778,18
Public Rack - Kedzie Ave & Chicago Ave,casual,41.896786631666664,-87.70737184555556,18
Public Rack - Pulaski & 52nd,casual,41.798903644999996,-87.72130644611111,18
Public Rack - Wood St & 103rd St,casual,41.709252112777776,-87.6694135988889,18
Washtenaw Ave & Madison St,casual,41.88081871333333,-87.69245441944445,18
Public Rack - Haft Ave & Milwaukee Ave,casual,41.996141328235296,-87.78687412117647,17
Public Rack - Homan & 79th,casual,41.74989461647059,-87.7079121017647,17
Public Rack - Irving Park Rd & Leclaire Ave,casual,41.953207248235294,-87.75459748235293,17
Public Rack - Kedzie Ave & 54th St - SE,casual,41.792466123529415,-87.70208641705882,17
Public Rack - Linder & Elston,casual,41.98190100823529,-87.76774347,17
Public Rack - Milwaukee Ave & Catalpa Ave,casual,41.977561050588236,-87.76909216823529,17
Public Rack - Narragansett Ave & Fullerton Ave,casual,41.92289885823529,-87.78343913764705,17
Public Rack - Pulaski Rd & 65th St,casual,41.77189195764706,-87.72150199294117,17
Public Rack - Foster Ave & Drake Ave,casual,41.976139676875,-87.71803458125,16
Public Rack - Halsted St & 76th St,casual,41.7574232975,-87.642550613125,16
Public Rack - Harvard Ave & 119th St,casual,41.67912770625,-87.630294571875,16
Public Rack - Irving Park Rd & Austin Ave,casual,41.952711006875,-87.777495919375,16
Public Rack - Kimball & Ardmore,casual,41.987010184375,-87.71396478875,16
Public Rack - Melvina & Foster,casual,41.97586767875,-87.7831648275,16
Public Rack - Menard Ave & Grand Ave,casual,41.91987704,-87.77047415187499,16
Public Rack - Natoma Ave & 61st St,casual,41.780475440625,-87.78836132937501,16
Public Rack - Racine Ave & 74th St,casual,41.759530888125,-87.6532529,16
Public Rack - Western Ave & 100th St,casual,41.7112394975,-87.681342279375,16
Public Rack - Western Ave & 92nd Pl,casual,41.727402606249996,-87.681102618125,16
Avenue L & 114th St,casual,41.688029688,-87.53657186333334,15
Public Rack - 82nd st & Kedzie Ave,casual,41.742735765333336,-87.70186648933333,15
Public Rack - Austin & Higgins,casual,41.97239939466667,-87.77827018,15
Public Rack - Avers & Granville,casual,41.99378134333333,-87.72489434066667,15
Public Rack - California & 71st,casual,41.76340825133333,-87.69232595333332,15
Public Rack - Ewing Ave & 107th St,casual,41.70031007066667,-87.53600902333334,15
Public Rack - Fairfield Ave & 63rd St,casual,41.77973073333333,-87.69099496533333,15
Public Rack - Kilpatrick & Elston,casual,41.969984922,-87.74262975,15
Public Rack - Lynch & Elston,casual,41.981021911333336,-87.76137754066667,15
Public Rack - Meade Ave & Archer Ave,casual,41.79376138466667,-87.773793986,15
Public Rack - Pulaski Rd & 83rd St,casual,41.74095827866667,-87.72119961666667,15
Public Rack - South Shore Dr & 71st St,casual,41.76922489733334,-87.56053718333334,15
Public Rack - Winona St & Elston Ave,casual,41.973186688,-87.75031950933334,15
Bradley Park,casual,41.71788908571429,-87.56458105642858,14
Kenneth Ave & Lawrence Ave,casual,41.96786473642857,-87.73999600571429,14
Public Rack - Austin & 62nd,casual,41.779759545714285,-87.77101555214286,14
Public Rack - California Ave & Ogden Ave,casual,41.86078590071428,-87.695738935,14
Public Rack - Central & Prescott,casual,41.99219979357143,-87.76653481714285,14
Public Rack - Central Ave & Corcoran Pl,casual,41.887694964285714,-87.76586386857143,14
Public Rack - Delphina & Foster,casual,41.97211018,-87.84061173857143,14
Public Rack - Forrestville Ave & 47th St,casual,41.80943102,-87.61269635428572,14
Public Rack - Francisco Ave & Touhy Ave,casual,42.01141807214286,-87.70085450142857,14
Public Rack - Jensen Park,casual,41.96312405928571,-87.72044696357143,14
Public Rack - Kenneth Ave & 63rd St E,casual,41.779361803571426,-87.73144156857143,14
Public Rack - Marshfield Ave & 87th St,casual,41.737234095,-87.66251868285714,14
Public Rack - Melvina Ave & Montrose Ave,casual,41.959093617142855,-87.781586885,14
Public Rack - Milwaukee Ave & Pensacola Ave,casual,41.95957036357143,-87.75288460785714,14
Public Rack - Mozart Elementary School,casual,41.92088312642857,-87.72137678214285,14
Public Rack - Olmstead Ave & Oliphant Ave,casual,42.001992217142856,-87.81752718928571,14
Public Rack - Richard Daley College,casual,41.754835775000004,-87.72366595428572,14
Public Rack - Western & 83rd,casual,41.743335318571425,-87.68262408714286,14
Public Rack - Wood St & 47th St,casual,41.80944205357143,-87.66999893785714,14
Eggleston Ave & 92nd St,casual,41.72762959615385,-87.63487649384615,13
Public Rack - 63rd St and Nagle Ave,casual,41.77797000923077,-87.7818731176923,13
Public Rack - Ashland Ave & 76th St,casual,41.75873034,-87.66120431076922,13
Public Rack - Ashland Ave & 91st St,casual,41.728751863846156,-87.66210711307691,13
Public Rack - Austin Blvd & North Ave,casual,41.90961399538462,-87.77736045846154,13
Public Rack - California Ave & Devon Ave - NW,casual,41.99927941615385,-87.69979681923077,13
Public Rack - Halsted St & 95th St - SE,casual,41.72016317923077,-87.64070373076923,13
Public Rack - Harlem & Palatine,casual,41.996162643846155,-87.80747679461538,13
Public Rack - Holbrook St & Milwaukee Ave,casual,41.991455206153844,-87.78205384615384,13
Public Rack - Laramie Ave & Grand Ave,casual,41.918469574615386,-87.75784011846154,13
Public Rack - Lemont Ave & Keating Ave,casual,41.99116092,-87.74716913692308,13
Public Rack - Linder & 51st,casual,41.79996774153846,-87.7600004223077,13
Public Rack - Linder Ave & 64th Pl,casual,41.77545525,-87.75805727846154,13
Public Rack - Mulligan Ave & 56th St,casual,41.79040654076923,-87.77997063,13
Public Rack - Western Ave & 105th St,casual,41.70177386846154,-87.68102381384615,13
Public Rack - Western Ave & 47th Pl,casual,41.80912640076923,-87.68219654384616,13
Wentworth Ave & 104th St,casual,41.70533128538462,-87.62907695846154,13
Lavergne Ave & Fullerton Ave,casual,41.923971355,-87.7511670325,12
Public Rack - 4810 Keeler Ave,casual,41.9684414175,-87.7327628175,12
Public Rack - Ave N & 106th St,casual,41.702464149166666,-87.53878078333334,12
Public Rack - Avers Ave & Ogden Ave,casual,41.85177288083333,-87.720650695,12
Public Rack - Central Ave & George St,casual,41.932024551666665,-87.76717796416666,12
Public Rack - Cicero Ave & Wellington Ave,casual,41.93759044583333,-87.74806035916666,12
Public Rack - Greenwood Ave & Lake Park Ave,casual,41.8174344175,-87.59954682166666,12
Public Rack - Kedzie & 73rd,casual,41.760634855,-87.7021911675,12
Public Rack - Kedzie Ave & 62nd Pl,casual,41.780038211666664,-87.70269262083333,12
Public Rack - Kedzie Ave & 64th St - SW,casual,41.77757723333333,-87.70267720083334,12
Public Rack - Kedzie Ave & 83rd St,casual,41.7424096975,-87.70163563166666,12
Public Rack - Marshfield Ave & 45th St,casual,41.8123513325,-87.66623332500001,12
Public Rack - Peterson Ave & Milwaukee Ave,casual,41.989849219999996,-87.78066324416666,12
Public Rack - Peterson Park,casual,41.9787153825,-87.75554989,12
Public Rack - Pulaski Rd & Lake St,casual,41.8870827175,-87.7272488425,12
Public Rack - Sayre Ave & 59th St,casual,41.78388218333333,-87.79652767416667,12
Public Rack - Western Ave & 104th St - West,casual,41.70162226916667,-87.68069916583333,12
Hastings LWS,casual,41.86,-87.68,11
Public Rack - 111th St - Morgan Park Metra,casual,41.691089974545456,-87.67022492636363,11
Public Rack - 532 E 43rd St,casual,41.81764175090909,-87.61221187090909,11
Public Rack - Austin Ave & Archer Ave,casual,41.792315222727275,-87.77082753727272,11
Public Rack - Bryn Mawr Ave & Spaulding Ave,casual,41.98306999727273,-87.71160755636363,11
Public Rack - Cicero Ave & Altgeld St,casual,41.92655658181818,-87.74714642636364,11
Public Rack - Cicero Ave & North Ave,casual,41.90971338181818,-87.74730589454545,11
Public Rack - Halsted St & 111th St,casual,41.691360734545455,-87.64180979363637,11
Public Rack - Hiawatha Ave & Minnehaha Ave,casual,41.99968039636364,-87.76032139363636,11
Public Rack - Homan Ave & 26th St,casual,41.84297498909091,-87.70997469818181,11
Public Rack - Homan Ave & 62nd Pl,casual,41.77965271090909,-87.70850575363636,11
Public Rack - Houston Ave & 131st St,casual,41.65773854363636,-87.54878809363636,11
Public Rack - Kedzie Ave & 54th St - SW,casual,41.797796726363636,-87.701683740000007,11
Public Rack - Kedzie Ave & 61st Pl W,casual,41.781354266363635,-87.70240329545454,11
Public Rack - Kedzie Ave & 63rd St,casual,41.779357295454545,-87.70173392181819,11
Public Rack - Kostner & 83rd,casual,41.74169192272727,-87.73126489545454,11
Public Rack - Langley Ave & 49th St,casual,41.804955942727275,-87.60914459454546,11
Public Rack - Maplewood Ave & 47th St,casual,41.80916065727273,-87.68927009727273,11
Public Rack - Menard Ave & Belmont Ave,casual,41.93888829363636,-87.77067579454545,11
Public Rack - Milwaukee Ave & Lawrence Ave,casual,41.96805654,-87.76018225727273,11
Public Rack - Parkside & 63rd,casual,41.778432167272726,-87.76244610181818,11
Public Rack - S. Kilpatrick and W. 79th,casual,41.749324764545456,-87.73965487181817,11
Public Rack - Sawyer Ave & Bryn Mawr Ave - SE,casual,41.981896979090905,-87.70978531727272,11
Public Rack - Sawyer Ave & Chicago Ave,casual,41.896301334545456,-87.70845634363636,11
Public Rack - Springfield & 79th,casual,41.74966208272727,-87.72094423636364,11
Public Rack - Winchester Ave & 87th St,casual,41.73693802090909,-87.67151028545454,11
Public Rack - Woodlawn Ave & 63rd St S,casual,41.77985941,-87.59749038545455,11
Western Ave & 62nd St,casual,41.78071654909091,-87.68244873727272,11
